[
  {
    "origem_nome": "Curitiba",
    "destino_nome": "Pontal do Paran\u00e1",
    "origem_lat": -25.419547,
    "origem_lon": -49.264622,
    "destino_lat": -25.673533,
    "destino_lon": -48.511062,
    "tempo_referencia_min": 91,
    "distancia_referencia_km": 119.4,
    "fonte_referencia": "Rome2Rio (opcao Drive)",
    "fonte_link": "https://www.rome2rio.com/s/Curitiba/Pontal-do-Paran%C3%A1",
    "corredor_macro_esperado": "BR277_LITORAL",
    "corredor_fino_esperado": "PONTAL_LITORAL",
    "observacoes": "Trecho de serra e litoral via BR-277/PR-407.",
    "data_coleta": "2026-03-11"
  },
  {
    "origem_nome": "Curitiba",
    "destino_nome": "Paranagu\u00e1",
    "origem_lat": -25.419547,
    "origem_lon": -49.264622,
    "destino_lat": -25.516078,
    "destino_lon": -48.522528,
    "tempo_referencia_min": 65,
    "distancia_referencia_km": 90.5,
    "fonte_referencia": "Rome2Rio (opcao Drive)",
    "fonte_link": "https://www.rome2rio.com/s/Curitiba/Paranagu%C3%A1",
    "corredor_macro_esperado": "BR277_LITORAL",
    "corredor_fino_esperado": "PARANAGUA",
    "observacoes": "Trecho de serra ate o litoral com chegada urbana em Paranagua.",
    "data_coleta": "2026-03-11"
  },
  {
    "origem_nome": "Curitiba",
    "destino_nome": "Ponta Grossa",
    "origem_lat": -25.419547,
    "origem_lon": -49.264622,
    "destino_lat": -25.091622,
    "destino_lon": -50.166787,
    "tempo_referencia_min": 90,
    "distancia_referencia_km": 113.7,
    "fonte_referencia": "Rome2Rio (opcao Drive)",
    "fonte_link": "https://www.rome2rio.com/s/Curitiba/Ponta-Grossa",
    "corredor_macro_esperado": "CAMPOS_GERAIS",
    "corredor_fino_esperado": "PONTA_GROSSA",
    "observacoes": "Campos Gerais curto, com travessia urbana forte na chegada.",
    "data_coleta": "2026-03-11"
  },
  {
    "origem_nome": "Curitiba",
    "destino_nome": "Tel\u00eamaco Borba",
    "origem_lat": -25.419547,
    "origem_lon": -49.264622,
    "destino_lat": -24.32452,
    "destino_lon": -50.617585,
    "tempo_referencia_min": 188,
    "distancia_referencia_km": 243.2,
    "fonte_referencia": "Rome2Rio (opcao Drive)",
    "fonte_link": "https://www.rome2rio.com/s/Curitiba/Tel%C3%AAmaco-Borba",
    "corredor_macro_esperado": "CAMPOS_GERAIS",
    "corredor_fino_esperado": "TELEMACO_BORBA",
    "observacoes": "Trecho interior com desvio pela PR-160 apos BR-376.",
    "data_coleta": "2026-03-11"
  },
  {
    "origem_nome": "Curitiba",
    "destino_nome": "Guarapuava",
    "origem_lat": -25.419547,
    "origem_lon": -49.264622,
    "destino_lat": -25.390237,
    "destino_lon": -51.462317,
    "tempo_referencia_min": 204,
    "distancia_referencia_km": 254.3,
    "fonte_referencia": "Rome2Rio (opcao Drive)",
    "fonte_link": "https://www.rome2rio.com/s/Curitiba/Guarapuava",
    "corredor_macro_esperado": "BR277_OESTE",
    "corredor_fino_esperado": "GUARAPUAVA",
    "observacoes": "Eixo da BR-277 para o centro-oeste do estado.",
    "data_coleta": "2026-03-11"
  },
  {
    "origem_nome": "Curitiba",
    "destino_nome": "Londrina",
    "origem_lat": -25.419547,
    "origem_lon": -49.264622,
    "destino_lat": -23.303975,
    "destino_lon": -51.1691,
    "tempo_referencia_min": 304,
    "distancia_referencia_km": 383.3,
    "fonte_referencia": "Rome2Rio (opcao Drive)",
    "fonte_link": "https://www.rome2rio.com/s/Curitiba/Londrina",
    "corredor_macro_esperado": "NORTE_CAFE",
    "corredor_fino_esperado": "LONDRINA",
    "observacoes": "Eixo BR-376/BR-369 para o norte do estado.",
    "data_coleta": "2026-03-11"
  },
  {
    "origem_nome": "Curitiba",
    "destino_nome": "Apucarana",
    "origem_lat": -25.419547,
    "origem_lon": -49.264622,
    "destino_lat": -23.549961,
    "destino_lon": -51.463486,
    "tempo_referencia_min": 279,
    "distancia_referencia_km": 362.4,
    "fonte_referencia": "Rome2Rio (opcao Drive)",
    "fonte_link": "https://www.rome2rio.com/s/Curitiba/Apucarana",
    "corredor_macro_esperado": "NORTE_CAFE",
    "corredor_fino_esperado": "APUCARANA",
    "observacoes": "Norte-cafe com chegada urbana no eixo Apucarana/ARapongas.",
    "data_coleta": "2026-03-11"
  },
  {
    "origem_nome": "Curitiba",
    "destino_nome": "Maring\u00e1",
    "origem_lat": -25.419547,
    "origem_lon": -49.264622,
    "destino_lat": -23.420545,
    "destino_lon": -51.933298,
    "tempo_referencia_min": 320,
    "distancia_referencia_km": 424.6,
    "fonte_referencia": "Rome2Rio (opcao Drive)",
    "fonte_link": "https://www.rome2rio.com/s/Curitiba/Maring%C3%A1",
    "corredor_macro_esperado": "NORTE_CAFE",
    "corredor_fino_esperado": "MARINGA",
    "observacoes": "Norte-cafe com entrada metropolitana pela PR-897.",
    "data_coleta": "2026-03-11"
  },
  {
    "origem_nome": "Curitiba",
    "destino_nome": "Cianorte",
    "origem_lat": -25.419547,
    "origem_lon": -49.264622,
    "destino_lat": -23.659859,
    "destino_lon": -52.605444,
    "tempo_referencia_min": 372,
    "distancia_referencia_km": 503.6,
    "fonte_referencia": "Rome2Rio (opcao Drive)",
    "fonte_link": "https://www.rome2rio.com/s/Curitiba/Cianorte",
    "corredor_macro_esperado": "NOROESTE_INTERIOR",
    "corredor_fino_esperado": "CIANORTE",
    "observacoes": "Noroeste interior com dominio da PR-323/PR-317.",
    "data_coleta": "2026-03-11"
  },
  {
    "origem_nome": "Curitiba",
    "destino_nome": "Umuarama",
    "origem_lat": -25.419547,
    "origem_lon": -49.264622,
    "destino_lat": -23.765634,
    "destino_lon": -53.32011,
    "tempo_referencia_min": 455,
    "distancia_referencia_km": 553.7,
    "fonte_referencia": "Rome2Rio (opcao Drive)",
    "fonte_link": "https://www.rome2rio.com/s/Curitiba/Umuarama",
    "corredor_macro_esperado": "NOROESTE_INTERIOR",
    "corredor_fino_esperado": "UMUARAMA",
    "observacoes": "Interior longo via BR-376 e PR-323.",
    "data_coleta": "2026-03-11"
  },
  {
    "origem_nome": "Curitiba",
    "destino_nome": "Cruzeiro do Sul",
    "origem_lat": -25.419547,
    "origem_lon": -49.264622,
    "destino_lat": -22.96244,
    "destino_lon": -52.16221,
    "tempo_referencia_min": 413,
    "distancia_referencia_km": 491.0,
    "fonte_referencia": "DistanciaCidades (rota de conducao estimada)",
    "fonte_link": "https://br.distanciacidades.net/distancia-de-curitiba-a-cruzeiro-do-sul-parana",
    "corredor_macro_esperado": "NOROESTE_INTERIOR",
    "corredor_fino_esperado": "CRUZEIRO_DO_SUL",
    "observacoes": "Noroeste extremo, apos Paranavai.",
    "data_coleta": "2026-03-11"
  },
  {
    "origem_nome": "Curitiba",
    "destino_nome": "Cascavel",
    "origem_lat": -25.419547,
    "origem_lon": -49.264622,
    "destino_lat": -24.957301,
    "destino_lon": -53.459005,
    "tempo_referencia_min": 393,
    "distancia_referencia_km": 496.2,
    "fonte_referencia": "Rome2Rio (opcao Drive)",
    "fonte_link": "https://www.rome2rio.com/s/Curitiba/Cascavel",
    "corredor_macro_esperado": "BR277_OESTE",
    "corredor_fino_esperado": "CASCAVEL",
    "observacoes": "Eixo principal da BR-277 no oeste.",
    "data_coleta": "2026-03-11"
  },
  {
    "origem_nome": "Curitiba",
    "destino_nome": "Palotina",
    "origem_lat": -25.419547,
    "origem_lon": -49.264622,
    "destino_lat": -24.286784,
    "destino_lon": -53.840422,
    "tempo_referencia_min": 466,
    "distancia_referencia_km": 592.1,
    "fonte_referencia": "Rome2Rio (opcao Drive)",
    "fonte_link": "https://www.rome2rio.com/s/Curitiba/Palotina",
    "corredor_macro_esperado": "BR277_OESTE",
    "corredor_fino_esperado": "PALOTINA",
    "observacoes": "Oeste longo com saida final pela PR-182.",
    "data_coleta": "2026-03-11"
  },
  {
    "origem_nome": "Curitiba",
    "destino_nome": "Foz do Igua\u00e7u",
    "origem_lat": -25.419547,
    "origem_lon": -49.264622,
    "destino_lat": -25.542748,
    "destino_lon": -54.582689,
    "tempo_referencia_min": 492,
    "distancia_referencia_km": 635.8,
    "fonte_referencia": "Rome2Rio (opcao Drive)",
    "fonte_link": "https://www.rome2rio.com/s/Curitiba/Foz-do-Igua%C3%A7u",
    "corredor_macro_esperado": "BR277_OESTE",
    "corredor_fino_esperado": "FOZ_DO_IGUACU",
    "observacoes": "Oeste muito longo com dominio total da BR-277.",
    "data_coleta": "2026-03-11"
  },
  {
    "origem_nome": "Curitiba",
    "destino_nome": "Francisco Beltr\u00e3o",
    "origem_lat": -25.419547,
    "origem_lon": -49.264622,
    "destino_lat": -26.081677,
    "destino_lon": -53.053466,
    "tempo_referencia_min": 373,
    "distancia_referencia_km": 468.6,
    "fonte_referencia": "Rome2Rio (opcao Drive)",
    "fonte_link": "https://www.rome2rio.com/s/Curitiba/Francisco-Beltr%C3%A3o",
    "corredor_macro_esperado": "BR277_OESTE",
    "corredor_fino_esperado": "FRANCISCO_BELTRAO",
    "observacoes": "Sudoeste com combinacao BR-476/PR-280/PR-483.",
    "data_coleta": "2026-03-11"
  }
]
